[
    {
        "id": 2253,
        "uuid": "e9714b09-bf18-4f72-be2e-75c2549425f6",
        "name": "BUILDING BLOCKS CHILDCARE CENTRES #1",
        "type": "DAY CARE (FACILITY-BASED PROGRAM)",
        "address": "2366 SOUTHVIEW DRIVE SE",
        "city": "MEDICINE HAT",
        "province": "AB",
        "postalCode": "T1B 1R2",
        "phoneNumber": "403-504-7544",
        "googleMapsLink": "https://www.google.com/maps/search/BUILDING%20BLOCKS%20CHILDCARE%20CENTRES%20#1%202366%20SOUTHVIEW%20DRIVE%20SE%20%20MEDICINE%20HAT%20AB%20T1B%201R2",
        "capacity": 125,
        "placeId": "ChIJmzUahb4tE1MRjG_iCD3SkrU",
        "latitude": 50.0167304,
        "longitude": -110.6429978,
        "website": "http://www.bbps.ca/",
        "rating": 3.9,
        "userRatingsTotal": 27,
        "createdAt": "2023-09-30T21:00:06.974Z",
        "updatedAt": "2023-09-30T21:00:15.496Z"
    },
    {
        "id": 312,
        "uuid": "9654a2a9-3ba6-42a9-a270-55dd3cfc767d",
        "name": "BUILDING BLOCKS CHILDCARE CENTRES #2",
        "type": "DAY CARE (FACILITY-BASED PROGRAM)",
        "address": "6 SOMERSET WAY SE",
        "city": "MEDICINE HAT",
        "province": "AB",
        "postalCode": "T1B 4H5",
        "phoneNumber": "403-504-7544",
        "googleMapsLink": "https://www.google.com/maps/search/BUILDING%20BLOCKS%20CHILDCARE%20CENTRES%20#2%206%20SOMERSET%20WAY%20SE%20%20MEDICINE%20HAT%20AB%20T1B%204H5",
        "capacity": 38,
        "placeId": "ChIJL1rs334tE1MRR9tR2GWmNWU",
        "latitude": 49.99421599999999,
        "longitude": -110.654398,
        "website": "http://www.bbps.ca/",
        "rating": 4.4,
        "userRatingsTotal": 5,
        "createdAt": "2023-09-30T21:00:05.474Z",
        "updatedAt": "2023-09-30T21:00:15.482Z"
    },
    {
        "id": 313,
        "uuid": "595bcb71-e9e8-4868-a2d2-51a98a99f799",
        "name": "BUILDING BLOCKS CHILDCARE CENTRES #3",
        "type": "DAY CARE (FACILITY-BASED PROGRAM)",
        "address": "36 ROSS GLEN ROAD, SE",
        "city": "MEDICINE HAT",
        "province": "AB",
        "postalCode": "T1B 3A8",
        "phoneNumber": "403-504-7544",
        "googleMapsLink": "https://www.google.com/maps/search/BUILDING%20BLOCKS%20CHILDCARE%20CENTRES%20#3%2036%20ROSS%20GLEN%20ROAD,%20SE%20%20MEDICINE%20HAT%20AB%20T1B%203A8",
        "capacity": 17,
        "placeId": "ChIJu_z_24ctE1MRq3Wh3cB-93s",
        "latitude": 50.0059761,
        "longitude": -110.6341395,
        "website": "http://www.bbps.ca/",
        "rating": 5,
        "userRatingsTotal": 1,
        "createdAt": "2023-09-30T21:00:05.474Z",
        "updatedAt": "2023-09-30T21:00:15.478Z"
    },
    {
        "id": 2246,
        "uuid": "e7955e94-4f0f-4b46-832c-47bc6f27734d",
        "name": "COLLEGE CHILD CARE SOCIETY OF MEDICINE HAT",
        "type": "FAMILY DAY HOME",
        "address": "299 COLLEGE DR SE",
        "city": "MEDICINE HAT",
        "province": "AB",
        "postalCode": "T1A 3Y6",
        "phoneNumber": "403-525-2656",
        "googleMapsLink": "https://www.google.com/maps/search/COLLEGE%20CHILD%20CARE%20SOCIETY%20OF%20MEDICINE%20HAT%20299%20COLLEGE%20DR%20SE%20%20MEDICINE%20HAT%20AB%20T1A%203Y6",
        "capacity": 48,
        "placeId": "ChIJAXz-LxstE1MRmjmuIfcbgIY",
        "latitude": 50.0193792,
        "longitude": -110.6869456,
        "website": null,
        "rating": null,
        "userRatingsTotal": null,
        "createdAt": "2023-09-30T21:00:06.971Z",
        "updatedAt": "2023-09-30T21:00:15.487Z"
    },
    {
        "id": 2255,
        "uuid": "7bb84fbd-05b1-4bc5-875e-d06a16097f2d",
        "name": "COLLEGE CHILD DEVELOPMENT CENTRE",
        "type": "DAY CARE (FACILITY-BASED PROGRAM)",
        "address": "299 COLLEGE DRIVE SE",
        "city": "MEDICINE HAT",
        "province": "AB",
        "postalCode": "T1A 3Y6",
        "phoneNumber": "403-504-3694",
        "googleMapsLink": "https://www.google.com/maps/search/COLLEGE%20CHILD%20DEVELOPMENT%20CENTRE%20299%20COLLEGE%20DRIVE%20SE%20%20MEDICINE%20HAT%20AB%20T1A%203Y6",
        "capacity": 43,
        "placeId": "ChIJC4cCyRotE1MRUjFUSSMqOJA",
        "latitude": 50.017832,
        "longitude": -110.6854718,
        "website": "http://mhc.ab.ca/",
        "rating": null,
        "userRatingsTotal": null,
        "createdAt": "2023-09-30T21:00:06.974Z",
        "updatedAt": "2023-09-30T21:00:15.480Z"
    },
    {
        "id": 473,
        "uuid": "c55f69ac-d1d0-4dca-b097-672efa5ffc2b",
        "name": "CRAYON ACADEMY INC.",
        "type": "DAY CARE (FACILITY-BASED PROGRAM)",
        "address": "155 11 ST SW (IN PORTABLES)",
        "city": "MEDICINE HAT",
        "province": "AB",
        "postalCode": "T1A 4S2",
        "phoneNumber": "403-878-7406",
        "googleMapsLink": "https://www.google.com/maps/search/CRAYON%20ACADEMY%20INC.%20155%2011%20ST%20SW%20(IN%20PORTABLES)%20%20MEDICINE%20HAT%20AB%20T1A%204S2",
        "capacity": 34,
        "placeId": "ChIJLWJrWFYsE1MRP5ub_cG5y0U",
        "latitude": 50.0285219,
        "longitude": -110.6906905,
        "website": null,
        "rating": 5,
        "userRatingsTotal": 2,
        "createdAt": "2023-09-30T21:00:05.578Z",
        "updatedAt": "2023-09-30T21:00:15.488Z"
    },
    {
        "id": 2250,
        "uuid": "09286a2a-1620-4d67-94b1-fd269d75f73e",
        "name": "CRAYON ACADEMY INC. - SE",
        "type": "DAY CARE (FACILITY-BASED PROGRAM)",
        "address": "379 ABERDEEN STREET, SE",
        "city": "MEDICINE HAT",
        "province": "AB",
        "postalCode": "T1A 0R3",
        "phoneNumber": "403-548-6154",
        "googleMapsLink": "https://www.google.com/maps/search/CRAYON%20ACADEMY%20INC.%20-%20SE%20379%20ABERDEEN%20STREET,%20SE%20%20MEDICINE%20HAT%20AB%20T1A%200R3",
        "capacity": 40,
        "placeId": "ChIJAQAQ9lYsE1MRrnaP4hFbBbg",
        "latitude": 50.03554560000001,
        "longitude": -110.6778008,
        "website": null,
        "rating": 5,
        "userRatingsTotal": 1,
        "createdAt": "2023-09-30T21:00:06.971Z",
        "updatedAt": "2023-09-30T21:00:15.495Z"
    },
    {
        "id": 2244,
        "uuid": "014f294c-8369-49dd-9a8a-01cd9c60202e",
        "name": "CRAYON CHILDCARE CAMPUS LTD",
        "type": "DAY CARE (FACILITY-BASED PROGRAM)",
        "address": "278 CARRY DRVIE SE",
        "city": "MEDICINE HAT",
        "province": "AB",
        "postalCode": "T1B 1N6",
        "phoneNumber": "403-594-9487",
        "googleMapsLink": "https://www.google.com/maps/search/CRAYON%20CHILDCARE%20CAMPUS%20LTD%20278%20CARRY%20DRVIE%20SE%20%20MEDICINE%20HAT%20AB%20T1B%201N6",
        "capacity": 48,
        "placeId": "ChIJcfNwQ5UtE1MRTYEhqEy7KBc",
        "latitude": 50.0142614,
        "longitude": -110.6345823,
        "website": null,
        "rating": null,
        "userRatingsTotal": null,
        "createdAt": "2023-09-30T21:00:06.971Z",
        "updatedAt": "2023-09-30T21:00:15.497Z"
    },
    {
        "id": 2256,
        "uuid": "4c179969-c0a2-4a22-83aa-998aa9fa5ff6",
        "name": "DRAGONS & BUTTERFLIES CREATIVE PRESCHOOL",
        "type": "DAY CARE (FACILITY-BASED PROGRAM)",
        "address": "2480 - 16 AVENUE SE",
        "city": "MEDICINE HAT",
        "province": "AB",
        "postalCode": "T1A 3T4",
        "phoneNumber": "403-528-2720",
        "googleMapsLink": "https://www.google.com/maps/search/DRAGONS%20&%20BUTTERFLIES%20CREATIVE%20PRESCHOOL%202480%20-%2016%20AVENUE%20SE%20%20MEDICINE%20HAT%20AB%20T1A%203T4",
        "capacity": 45,
        "placeId": "ChIJOXY2taYtE1MRyhyqj85QjIA",
        "latitude": 50.0156326,
        "longitude": -110.6604684,
        "website": null,
        "rating": null,
        "userRatingsTotal": null,
        "createdAt": "2023-09-30T21:00:06.974Z",
        "updatedAt": "2023-09-30T21:00:15.485Z"
    },
    {
        "id": 567,
        "uuid": "230af396-8884-4935-9382-dba32f7cae36",
        "name": "DRAGONS AND BUTTERFLIES CREATIVE PRESCHOOL #2",
        "type": "DAY CARE (FACILITY-BASED PROGRAM)",
        "address": "163 SPRAGUE WAY SE",
        "city": "MEDICINE HAT",
        "province": "AB",
        "postalCode": "T1B 3L5",
        "phoneNumber": "403-529-2710",
        "googleMapsLink": "https://www.google.com/maps/search/DRAGONS%20AND%20BUTTERFLIES%20CREATIVE%20PRESCHOOL%20#2%20163%20SPRAGUE%20WAY%20SE%20%20MEDICINE%20HAT%20AB%20T1B%203L5",
        "capacity": 16,
        "placeId": "ChIJESwulRItE1MRghCHTy-qzc0",
        "latitude": 50.0080038,
        "longitude": -110.6788691,
        "website": "https://www.dragonsandbutterfliespreschool.ca/",
        "rating": 4,
        "userRatingsTotal": 5,
        "createdAt": "2023-09-30T21:00:05.623Z",
        "updatedAt": "2023-09-30T21:00:15.489Z"
    },
    {
        "id": 2241,
        "uuid": "7de6bafc-5a9b-4e67-835d-c67a1b9db29e",
        "name": "FAMILY Y.M.C.A. JOHN MILLAR CHILD DEVELOPMENT CENTRE",
        "type": "DAY CARE (FACILITY-BASED PROGRAM)",
        "address": "1721 21 STREET SE",
        "city": "MEDICINE HAT",
        "province": "AB",
        "postalCode": "T1A 2C3",
        "phoneNumber": "403-527-9444",
        "googleMapsLink": "https://www.google.com/maps/search/FAMILY%20Y.M.C.A.%20JOHN%20MILLAR%20CHILD%20DEVELOPMENT%20CENTRE%201721%2021%20STREET%20SE%20%20MEDICINE%20HAT%20AB%20T1A%202C3",
        "capacity": 61,
        "placeId": "ChIJ7SSNoKUtE1MR0okJ4f-cs8k",
        "latitude": 50.019754,
        "longitude": -110.6583383,
        "website": "https://medicinehatymca.ca/early-years",
        "rating": 5,
        "userRatingsTotal": 2,
        "createdAt": "2023-09-30T21:00:06.971Z",
        "updatedAt": "2023-09-30T21:00:15.492Z"
    },
    {
        "id": 2247,
        "uuid": "32bd584f-386a-446e-897d-1ed14ed35fbf",
        "name": "KIDS CONNECTION 2",
        "type": "DAY CARE (FACILITY-BASED PROGRAM)",
        "address": "103-450 VISTA DRIVE SE",
        "city": "MEDICINE HAT",
        "province": "AB",
        "postalCode": "T1B 4T1",
        "phoneNumber": "587-585-4310",
        "googleMapsLink": "https://www.google.com/maps/search/KIDS%20CONNECTION%202%20103-450%20VISTA%20DRIVE%20SE%20%20MEDICINE%20HAT%20AB%20T1B%204T1",
        "capacity": 56,
        "placeId": "ChIJY_kLWsUtE1MRobBOKM5s9Zo",
        "latitude": 49.9935302,
        "longitude": -110.6811676,
        "website": "http://kidsconnectiondaycare.ca/",
        "rating": 4.5,
        "userRatingsTotal": 6,
        "createdAt": "2023-09-30T21:00:06.971Z",
        "updatedAt": "2023-09-30T21:00:15.718Z"
    },
    {
        "id": 2238,
        "uuid": "7f9353ba-941b-4ff2-86e5-ed2fc0ffbeac",
        "name": "KIDS CONNECTION DAYCARE",
        "type": "OUT OF SCHOOL CARE (FACILITY-BASED PROGRAM)",
        "address": "UNIT 104 - 450 VISTA DRIVE SE",
        "city": "MEDICINE HAT",
        "province": "AB",
        "postalCode": "T1B 4T1",
        "phoneNumber": "587-554-4617",
        "googleMapsLink": "https://www.google.com/maps/search/KIDS%20CONNECTION%20DAYCARE%20UNIT%20104%20-%20450%20VISTA%20DRIVE%20SE%20%20MEDICINE%20HAT%20AB%20T1B%204T1",
        "capacity": 105,
        "placeId": "ChIJY_kLWsUtE1MRobBOKM5s9Zo",
        "latitude": 49.9935302,
        "longitude": -110.6811676,
        "website": "http://kidsconnectiondaycare.ca/",
        "rating": 4.5,
        "userRatingsTotal": 6,
        "createdAt": "2023-09-30T21:00:06.965Z",
        "updatedAt": "2023-09-30T21:00:15.602Z"
    },
    {
        "id": 988,
        "uuid": "19a1324f-5e8c-4b3f-8108-fe2b36a6267b",
        "name": "KIDS CONNECTION DAYCARE",
        "type": "DAY CARE (FACILITY-BASED PROGRAM)",
        "address": "UNIT 104 - 450 VISTA DRIVE SE",
        "city": "MEDICINE HAT",
        "province": "AB",
        "postalCode": "T1B 4T1",
        "phoneNumber": "587-554-4617",
        "googleMapsLink": "https://www.google.com/maps/search/KIDS%20CONNECTION%20DAYCARE%20UNIT%20104%20-%20450%20VISTA%20DRIVE%20SE%20%20MEDICINE%20HAT%20AB%20T1B%204T1",
        "capacity": 105,
        "placeId": "ChIJY_kLWsUtE1MRobBOKM5s9Zo",
        "latitude": 49.9935302,
        "longitude": -110.6811676,
        "website": "http://kidsconnectiondaycare.ca/",
        "rating": 4.5,
        "userRatingsTotal": 6,
        "createdAt": "2023-09-30T21:00:05.921Z",
        "updatedAt": "2023-09-30T21:00:15.530Z"
    },
    {
        "id": 2251,
        "uuid": "d8e4e631-5aa3-4a87-be41-e68d4f080f9d",
        "name": "KIDSPLAY PRESCHOOL LTD.",
        "type": "DAY CARE (FACILITY-BASED PROGRAM)",
        "address": "164 STRATTON WAY, SE",
        "city": "MEDICINE HAT",
        "province": "AB",
        "postalCode": "T1B 3R3",
        "phoneNumber": "403-528-5437",
        "googleMapsLink": "https://www.google.com/maps/search/KIDSPLAY%20PRESCHOOL%20LTD.%20164%20STRATTON%20WAY,%20SE%20%20MEDICINE%20HAT%20AB%20T1B%203R3",
        "capacity": 45,
        "placeId": "ChIJe9xwH24tE1MRkqxto_rD62s",
        "latitude": 50.0026061,
        "longitude": -110.6811337,
        "website": "http://kidsplaypreschool.ca/",
        "rating": 4.3,
        "userRatingsTotal": 3,
        "createdAt": "2023-09-30T21:00:06.974Z",
        "updatedAt": "2023-09-30T21:00:15.490Z"
    },
    {
        "id": 2254,
        "uuid": "2a73635d-d7ec-4a2a-82fb-d4f8218f4ad0",
        "name": "KIDSPLAY PRESCHOOL LTD. 2",
        "type": "DAY CARE (FACILITY-BASED PROGRAM)",
        "address": "68 RICE DRIVE, SE",
        "city": "MEDICINE HAT",
        "province": "AB",
        "postalCode": "T1B 3X2",
        "phoneNumber": "403-581-7022",
        "googleMapsLink": "https://www.google.com/maps/search/KIDSPLAY%20PRESCHOOL%20LTD.%202%2068%20RICE%20DRIVE,%20SE%20%20MEDICINE%20HAT%20AB%20T1B%203X2",
        "capacity": 48,
        "placeId": "ChIJnxFPcYktE1MRPEptqcBrYn4",
        "latitude": 49.9978401,
        "longitude": -110.6294821,
        "website": null,
        "rating": null,
        "userRatingsTotal": null,
        "createdAt": "2023-09-30T21:00:06.974Z",
        "updatedAt": "2023-09-30T21:00:15.484Z"
    },
    {
        "id": 2242,
        "uuid": "eb371f5d-4817-4302-8cac-239ff097064c",
        "name": "LAWSON FAMILY DAY HOMES",
        "type": "FAMILY DAY HOME",
        "address": "302 SOMERSET ROAD SE",
        "city": "MEDICINE HAT",
        "province": "AB",
        "postalCode": "T1B 0H4",
        "phoneNumber": "403-529-1691",
        "googleMapsLink": "https://www.google.com/maps/search/LAWSON%20FAMILY%20DAY%20HOMES%20302%20SOMERSET%20ROAD%20SE%20%20MEDICINE%20HAT%20AB%20T1B%200H4",
        "capacity": 100,
        "placeId": "ChIJjysY2H0tE1MRCcCWdhu5Elc",
        "latitude": 49.99153829999999,
        "longitude": -110.6564599,
        "website": null,
        "rating": null,
        "userRatingsTotal": null,
        "createdAt": "2023-09-30T21:00:06.971Z",
        "updatedAt": "2023-09-30T21:00:15.568Z"
    },
    {
        "id": 2257,
        "uuid": "3cea39cd-db1d-4630-99e1-575598facf21",
        "name": "LES JOYEUX COLIBRIS",
        "type": "DAY CARE (FACILITY-BASED PROGRAM)",
        "address": "20 SAAMIS ROTARY WAY SW",
        "city": "MEDICINE HAT",
        "province": "AB",
        "postalCode": "T1B 4N5",
        "phoneNumber": "403-528-2881",
        "googleMapsLink": "https://www.google.com/maps/search/LES%20JOYEUX%20COLIBRIS%2020%20SAAMIS%20ROTARY%20WAY%20SW%20%20MEDICINE%20HAT%20AB%20T1B%204N5",
        "capacity": 46,
        "placeId": "ChIJmxun5kEtE1MRUOeGrkrSLzo",
        "latitude": 50.00080200000001,
        "longitude": -110.6883612,
        "website": null,
        "rating": null,
        "userRatingsTotal": null,
        "createdAt": "2023-09-30T21:00:06.974Z",
        "updatedAt": "2023-09-30T21:00:15.451Z"
    },
    {
        "id": 2258,
        "uuid": "ed6140b2-be8b-48fd-b274-dea9e91621d0",
        "name": "LITTLE OWL LEARNING CENTRE INC.",
        "type": "OUT OF SCHOOL CARE (FACILITY-BASED PROGRAM)",
        "address": "101 6TH STREET SE",
        "city": "MEDICINE HAT",
        "province": "AB",
        "postalCode": "T1A 1G7",
        "phoneNumber": "403-527-9934",
        "googleMapsLink": "https://www.google.com/maps/search/LITTLE%20OWL%20LEARNING%20CENTRE%20INC.%20101%206TH%20STREET%20SE%20%20MEDICINE%20HAT%20AB%20T1A%201G7",
        "capacity": 101,
        "placeId": "ChIJJ4gVE1csE1MRIf2t8hc5TDY",
        "latitude": 50.0329025,
        "longitude": -110.6841368,
        "website": "http://www.littleowllearningcentre.ca/",
        "rating": 5,
        "userRatingsTotal": 17,
        "createdAt": "2023-09-30T21:00:06.974Z",
        "updatedAt": "2023-09-30T21:00:15.561Z"
    },
    {
        "id": 2245,
        "uuid": "3c3d4e72-5ea4-4e1b-bb83-e377c699c4b9",
        "name": "LITTLE OWL LEARNING CENTRE INC.",
        "type": "DAY CARE (FACILITY-BASED PROGRAM)",
        "address": "101 6TH STREET SE",
        "city": "MEDICINE HAT",
        "province": "AB",
        "postalCode": "T1A 1G7",
        "phoneNumber": "403-527-9934",
        "googleMapsLink": "https://www.google.com/maps/search/LITTLE%20OWL%20LEARNING%20CENTRE%20INC.%20101%206TH%20STREET%20SE%20%20MEDICINE%20HAT%20AB%20T1A%201G7",
        "capacity": 101,
        "placeId": "ChIJJ4gVE1csE1MRIf2t8hc5TDY",
        "latitude": 50.0329025,
        "longitude": -110.6841368,
        "website": "http://www.littleowllearningcentre.ca/",
        "rating": 5,
        "userRatingsTotal": 17,
        "createdAt": "2023-09-30T21:00:06.971Z",
        "updatedAt": "2023-09-30T21:00:15.580Z"
    },
    {
        "id": 2259,
        "uuid": "9ec8d483-1f3b-4ace-9020-d01dc621817b",
        "name": "MEDICINE HAT MONTESSORI PRESCHOOL",
        "type": "DAY CARE (FACILITY-BASED PROGRAM)",
        "address": "525D WASHINGTON AVENUE, SE",
        "city": "MEDICINE HAT",
        "province": "AB",
        "postalCode": "T1A 3J6",
        "phoneNumber": "403-526-7966",
        "googleMapsLink": "https://www.google.com/maps/search/MEDICINE%20HAT%20MONTESSORI%20PRESCHOOL%20525D%20WASHINGTON%20AVENUE,%20SE%20%20MEDICINE%20HAT%20AB%20T1A%203J6",
        "capacity": 43,
        "placeId": "ChIJQUFy6kgsE1MR0sf1aDuLcHU",
        "latitude": 50.0369864,
        "longitude": -110.6592263,
        "website": null,
        "rating": 4.5,
        "userRatingsTotal": 2,
        "createdAt": "2023-09-30T21:00:06.974Z",
        "updatedAt": "2023-09-30T21:00:15.553Z"
    },
    {
        "id": 2261,
        "uuid": "79c31225-f833-4203-9ab6-3f0f9d3c5db9",
        "name": "MONKEY BUSINESS DAY HOMES INC.",
        "type": "FAMILY DAY HOME",
        "address": "70B 8 STREET NW",
        "city": "MEDICINE HAT",
        "province": "AB",
        "postalCode": "T1A 6P1",
        "phoneNumber": "403-594-3699",
        "googleMapsLink": "https://www.google.com/maps/search/MONKEY%20BUSINESS%20DAY%20HOMES%20INC.%2070B%208%20STREET%20NW%20%20MEDICINE%20HAT%20AB%20T1A%206P1",
        "capacity": 180,
        "placeId": "ChIJf47MV2AsE1MRItuH--OTbE8",
        "latitude": 50.0499811,
        "longitude": -110.6890315,
        "website": null,
        "rating": null,
        "userRatingsTotal": null,
        "createdAt": "2023-09-30T21:00:06.982Z",
        "updatedAt": "2023-09-30T21:00:15.475Z"
    },
    {
        "id": 2237,
        "uuid": "0e953563-d393-488b-8215-386555d8065f",
        "name": "MONTESSORI CHILDREN'S HOUSE",
        "type": "DAY CARE (FACILITY-BASED PROGRAM)",
        "address": "343 CAMBRIDGE ST. SE",
        "city": "MEDICINE HAT",
        "province": "AB",
        "postalCode": "T1A 0S9",
        "phoneNumber": "403-952-6088",
        "googleMapsLink": "https://www.google.com/maps/search/MONTESSORI%20CHILDREN'S%20HOUSE%20343%20CAMBRIDGE%20ST.%20SE%20%20MEDICINE%20HAT%20AB%20T1A%200S9",
        "capacity": 25,
        "placeId": "ChIJVwm_1VUsE1MRunlHb5JO1_8",
        "latitude": 50.03371780000001,
        "longitude": -110.6767765,
        "website": null,
        "rating": 3.4,
        "userRatingsTotal": 8,
        "createdAt": "2023-09-30T21:00:06.965Z",
        "updatedAt": "2023-09-30T21:00:15.549Z"
    },
    {
        "id": 2239,
        "uuid": "479eb176-a681-4fe1-ab64-4fe4a920da2a",
        "name": "MOTHER NATURE'S PRESCHOOL LTD",
        "type": "DAY CARE (FACILITY-BASED PROGRAM)",
        "address": "2803 - 13 AVENUE, SE",
        "city": "MEDICINE HAT",
        "province": "AB",
        "postalCode": "T1A 3R1",
        "phoneNumber": "403-528-8892",
        "googleMapsLink": "https://www.google.com/maps/search/MOTHER%20NATURE'S%20PRESCHOOL%20LTD%202803%20-%2013%20AVENUE,%20SE%20%20MEDICINE%20HAT%20AB%20T1A%203R1",
        "capacity": 41,
        "placeId": "ChIJczcMAE0sE1MRjCpqYuzyu6g",
        "latitude": 50.0125043,
        "longitude": -110.6638834,
        "website": "http://www.mothernaturespreschool.ca/",
        "rating": 5,
        "userRatingsTotal": 1,
        "createdAt": "2023-09-30T21:00:06.965Z",
        "updatedAt": "2023-09-30T21:00:15.520Z"
    },
    {
        "id": 2240,
        "uuid": "f881a668-c11b-46df-95de-313472c77e83",
        "name": "NATURES WAY LEARNING CENTRE INC.",
        "type": "DAY CARE (FACILITY-BASED PROGRAM)",
        "address": "147 6TH STREET SE",
        "city": "MEDICINE HAT",
        "province": "AB",
        "postalCode": "T1A 1G7",
        "phoneNumber": "403-526-4744",
        "googleMapsLink": "https://www.google.com/maps/search/NATURES%20WAY%20LEARNING%20CENTRE%20INC.%20147%206TH%20STREET%20SE%20%20MEDICINE%20HAT%20AB%20T1A%201G7",
        "capacity": 106,
        "placeId": "ChIJxejFA3YtE1MRA00cyCK6YWw",
        "latitude": 50.03315790000001,
        "longitude": -110.6835283,
        "website": null,
        "rating": 4,
        "userRatingsTotal": 4,
        "createdAt": "2023-09-30T21:00:06.965Z",
        "updatedAt": "2023-09-30T21:00:15.550Z"
    },
    {
        "id": 2260,
        "uuid": "0338825f-6eda-48b9-99f8-336bb29e6069",
        "name": "PITTER PATTER EARLY LEARNING CENTER",
        "type": "DAY CARE (FACILITY-BASED PROGRAM)",
        "address": "423 - 4TH STREET SE",
        "city": "MEDICINE HAT",
        "province": "AB",
        "postalCode": "T1A 0K5",
        "phoneNumber": "403-580-5836",
        "googleMapsLink": "https://www.google.com/maps/search/PITTER%20PATTER%20EARLY%20LEARNING%20CENTER%20423%20-%204TH%20STREET%20SE%20%20MEDICINE%20HAT%20AB%20T1A%200K5",
        "capacity": 69,
        "placeId": "ChIJX1cG6fosE1MRZ5Y4L-dj8G4",
        "latitude": 50.0376239,
        "longitude": -110.6780724,
        "website": "https://pitterpatterelc.wixsite.com/pitterpatter",
        "rating": 5,
        "userRatingsTotal": 1,
        "createdAt": "2023-09-30T21:00:06.974Z",
        "updatedAt": "2023-09-30T21:00:15.517Z"
    },
    {
        "id": 2243,
        "uuid": "64bbff64-6f02-46af-b624-90b9e8c50cd0",
        "name": "RISING STARS LEARNING CENTRE INC",
        "type": "OUT OF SCHOOL CARE (FACILITY-BASED PROGRAM)",
        "address": "720-6TH STREET SE",
        "city": "MEDICINE HAT",
        "province": "AB",
        "postalCode": "T1A 4J5",
        "phoneNumber": "403-527-4500",
        "googleMapsLink": "https://www.google.com/maps/search/RISING%20STARS%20LEARNING%20CENTRE%20INC%20720-6TH%20STREET%20SE%20%20MEDICINE%20HAT%20AB%20T1A%204J5",
        "capacity": 38,
        "placeId": "ChIJf85TtcgtE1MRNRO411KsS5Q",
        "latitude": 50.0335605,
        "longitude": -110.7042433,
        "website": null,
        "rating": 5,
        "userRatingsTotal": 2,
        "createdAt": "2023-09-30T21:00:06.971Z",
        "updatedAt": "2023-09-30T21:00:15.531Z"
    },
    {
        "id": 2249,
        "uuid": "6ed97c50-65ff-49ba-a808-e5b822ac26f5",
        "name": "RISING STARS LEARNING CENTRE INC",
        "type": "DAY CARE (FACILITY-BASED PROGRAM)",
        "address": "720-6TH STREET SE",
        "city": "MEDICINE HAT",
        "province": "AB",
        "postalCode": "T1A 4J5",
        "phoneNumber": "403-527-4500",
        "googleMapsLink": "https://www.google.com/maps/search/RISING%20STARS%20LEARNING%20CENTRE%20INC%20720-6TH%20STREET%20SE%20%20MEDICINE%20HAT%20AB%20T1A%204J5",
        "capacity": 38,
        "placeId": "ChIJf85TtcgtE1MRNRO411KsS5Q",
        "latitude": 50.0335605,
        "longitude": -110.7042433,
        "website": null,
        "rating": 5,
        "userRatingsTotal": 2,
        "createdAt": "2023-09-30T21:00:06.971Z",
        "updatedAt": "2023-09-30T21:00:15.534Z"
    },
    {
        "id": 2248,
        "uuid": "d497f003-30ce-4233-8d8f-f3ac897c85a0",
        "name": "YMCA CRESCENT HEIGHTS CHILD DEVELOPMENT CENTRE",
        "type": "DAY CARE (FACILITY-BASED PROGRAM)",
        "address": "1707 7 AVENUE NE",
        "city": "MEDICINE HAT",
        "province": "AB",
        "postalCode": "T1C 1P5",
        "phoneNumber": "403-528-7300",
        "googleMapsLink": "https://www.google.com/maps/search/YMCA%20CRESCENT%20HEIGHTS%20CHILD%20DEVELOPMENT%20CENTRE%201707%207%20AVENUE%20NE%20%20MEDICINE%20HAT%20AB%20T1C%201P5",
        "capacity": 69,
        "placeId": "ChIJafgydGwsE1MRLalcPrErtq0",
        "latitude": 50.0576024,
        "longitude": -110.6704459,
        "website": null,
        "rating": 4.2,
        "userRatingsTotal": 5,
        "createdAt": "2023-09-30T21:00:06.971Z",
        "updatedAt": "2023-09-30T21:00:15.527Z"
    }
]